nazwa,adres,kod_pocztowy,miasto,longitude,latitude
X-kom Warszawa Bemowo,ul. Powstańców Śląskich 127,01-355,Warszawa,20.922306,52.240055
X-kom Warszawa Targówek,ul. Szyszkowa 39,03-287,Warszawa,21.063231,52.303005
X-kom Warszawa Wilanów,ul. Klimczaka 1,02-797,Warszawa,21.107129,52.165264
X-kom Kraków,ul. Wadowicka 6B,30-415,Kraków,19.923361,50.056808
X-kom Poznań,ul. Głogowska 66,60-734,Poznań,16.932555,52.393259
X-kom Wrocław,ul. Legnicka 51-53,54-203,Wrocław,16.925048,51.098797
X-kom Gdańsk,ul. Malczewskiego 26,80-126,Gdańsk,18.585952,54.371778
